{"type": "Feature", "id": 1, "geometry": {"type": "Point", "coordinates": [-73.8889595385471, 40.8962181659327]}, "properties": {"Stacked": 3, "Angle": 0, "Borough": "Bronx", "AnnoLine1": "Van", "Type": "Park", "AnnoLine4": " ", "Name": "Van Cortlandt Park", "FID": 1, "AnnoLine3": "Park", "AnnoLine2": "Cortlandt", "Id": 90}}
{"type": "Feature", "id": 2, "geometry": {"type": "Point", "coordinates": [-73.8716524430269, 40.8898877672726]}, "properties": {"Stacked": 2, "Angle": 0, "Borough": "Bronx", "AnnoLine1": "Woodlawn", "Type": "Cemetery", "AnnoLine4": " ", "Name": "Woodlawn Cemetery", "FID": 2, "AnnoLine3": " ", "AnnoLine2": "Cemetery", "Id": 95}}
{"type": "Feature", "id": 3, "geometry": {"type": "Point", "coordinates": [-73.8386432926923, 40.886973517991]}, "properties": {"Stacked": 3, "Angle": 0, "Borough": "Bronx", "AnnoLine1": "Seton", "Type": "Park", "AnnoLine4": " ", "Name": "Seton Falls Park", "FID": 3, "AnnoLine3": "Park", "AnnoLine2": "Falls", "Id": 81}}
{"type": "Feature", "id": 4, "geometry": {"type": "Point", "coordinates": [-73.8098038185439, 40.877993845514]}, "properties": {"Stacked": 3, "Angle": 0, "Borough": "Bronx", "AnnoLine1": "Pelham", "Type": "Park", "AnnoLine4": " ", "Name": "Pelham Bay Park", "FID": 4, "AnnoLine3": "Park", "AnnoLine2": "Bay", "Id": 69}}
{"type": "Feature", "id": 5, "geometry": {"type": "Point", "coordinates": [-73.8783091762943, 40.864432237581]}, "properties": {"Stacked": 3, "Angle": 0, "Borough": "Bronx", "AnnoLine1": "New York", "Type": "Park", "AnnoLine4": " ", "Name": "New York Botanical Garden", "FID": 5, "AnnoLine3": "Garden", "AnnoLine2": "Botanical", "Id": 8}}
{"type": "Feature", "id": 6, "geometry": {"type": "Point", "coordinates": [-73.8762620592075, 40.8555303629988]}, "properties": {"Stacked": 2, "Angle": 0, "Borough": "Bronx", "AnnoLine1": "Bronx", "Type": "Park", "AnnoLine4": " ", "Name": "Bronx Park", "FID": 6, "AnnoLine3": " ", "AnnoLine2": "Park", "Id": 9}}
{"type": "Feature", "id": 7, "geometry": {"type": "Point", "coordinates": [-73.8353053719361, 40.8233164311712]}, "properties": {"Stacked": 3, "Angle": 0, "Borough": "Bronx", "AnnoLine1": "                 St.", "Type": "Park", "AnnoLine4": " ", "Name": "Saint  Raymond's Cemetery", "FID": 7, "AnnoLine3": "          Cemetery", "AnnoLine2": "             Raymond's", "Id": 78}}
{"type": "Feature", "id": 8, "geometry": {"type": "Point", "coordinates": [-73.8328477967356, 40.8143516624131]}, "properties": {"Stacked": 3, "Angle": 0, "Borough": "Bronx", "AnnoLine1": "Ferry", "Type": "Park", "AnnoLine4": " ", "Name": "Ferry Point Park", "FID": 8, "AnnoLine3": "Park", "AnnoLine2": "Point", "Id": 27}}
{"type": "Feature", "id": 9, "geometry": {"type": "Point", "coordinates": [-73.874561935369, 40.8175965344105]}, "properties": {"Stacked": 2, "Angle": 0, "Borough": "Bronx", "AnnoLine1": "Soundview", "Type": "Park", "AnnoLine4": " ", "Name": "Soundview Park", "FID": 9, "AnnoLine3": " ", "AnnoLine2": "Park", "Id": 84}}
{"type": "Feature", "id": 10, "geometry": {"type": "Point", "coordinates": [-73.894230788474, 40.8384848895335]}, "properties": {"Stacked": 2, "Angle": 0, "Borough": "Bronx", "AnnoLine1": "Crotona", "Type": "Park", "AnnoLine4": " ", "Name": "Crotona Park", "FID": 10, "AnnoLine3": " ", "AnnoLine2": "Park", "Id": 21}}
{"type": "Feature", "id": 11, "geometry": {"type": "Point", "coordinates": [-73.8752389822184, 40.8490142346179]}, "properties": {"Stacked": 2, "Angle": 0, "Borough": "Bronx", "AnnoLine1": "Bronx", "Type": "Park", "AnnoLine4": " ", "Name": "Bronx Zoo", "FID": 11, "AnnoLine3": " ", "AnnoLine2": "Zoo", "Id": 96}}
{"type": "Feature", "id": 12, "geometry": {"type": "Point", "coordinates": [-73.7654338980194, 40.851121248494]}, "properties": {"Stacked": 2, "Angle": 0, "Borough": "Bronx", "AnnoLine1": "Hart", "Type": "Park", "AnnoLine4": " ", "Name": "Hart Island", "FID": 12, "AnnoLine3": " ", "AnnoLine2": "Island", "Id": 42}}
{"type": "Feature", "id": 13, "geometry": {"type": "Point", "coordinates": [-73.9117596202731, 40.8114841541188]}, "properties": {"Stacked": 3, "Angle": 0, "Borough": "Bronx", "AnnoLine1": "St.", "Type": "Park", "AnnoLine4": " ", "Name": "Saint Mary's Park", "FID": 13, "AnnoLine3": "Park", "AnnoLine2": "Mary's", "Id": 79}}
{"type": "Feature", "id": 14, "geometry": {"type": "Point", "coordinates": [-73.9261822579486, 40.8722016246407]}, "properties": {"Stacked": 2, "Angle": 0, "Borough": "Manhattan", "AnnoLine1": "Inwood", "Type": "Park", "AnnoLine4": " ", "Name": "Inwood Hill Park", "FID": 14, "AnnoLine3": " ", "AnnoLine2": "Hill Park", "Id": 45}}
{"type": "Feature", "id": 15, "geometry": {"type": "Point", "coordinates": [-73.9319041284023, 40.8629990613063]}, "properties": {"Stacked": 3, "Angle": 0, "Borough": "Manhattan", "AnnoLine1": "Fort", "Type": "Park", "AnnoLine4": " ", "Name": "Fort Tryon Park", "FID": 15, "AnnoLine3": "Park", "AnnoLine2": "Tryon", "Id": 36}}
{"type": "Feature", "id": 16, "geometry": {"type": "Point", "coordinates": [-73.8827638909379, 40.7919888096936]}, "properties": {"Stacked": 2, "Angle": 0, "Borough": "Queens", "AnnoLine1": "Rikers", "Type": "Area of Interest", "AnnoLine4": " ", "Name": "Rikers Island", "FID": 16, "AnnoLine3": " ", "AnnoLine2": "Island", "Id": 74}}
{"type": "Feature", "id": 17, "geometry": {"type": "Point", "coordinates": [-73.9426818892722, 40.8034678422126]}, "properties": {"Stacked": 3, "Angle": 0, "Borough": "Manhattan", "AnnoLine1": "              Marcus", "Type": "Park", "AnnoLine4": " ", "Name": "Marcus Garvey Park", "FID": 17, "AnnoLine3": "     Park", "AnnoLine2": "     Garvey", "Id": 57}}
{"type": "Feature", "id": 18, "geometry": {"type": "Point", "coordinates": [-73.9217008994023, 40.7959229469762]}, "properties": {"Stacked": 3, "Angle": 0, "Borough": "Manhattan", "AnnoLine1": "Randall's", "Type": "Park", "AnnoLine4": " ", "Name": "Randall's Island Park", "FID": 18, "AnnoLine3": "Park", "AnnoLine2": "Island", "Id": 72}}
{"type": "Feature", "id": 19, "geometry": {"type": "Point", "coordinates": [-73.9299753225704, 40.7842925978426]}, "properties": {"Stacked": 3, "Angle": 0, "Borough": "Manhattan", "AnnoLine1": "Wards", "Type": "Park", "AnnoLine4": " ", "Name": "Ward's Island Park", "FID": 19, "AnnoLine3": "Park", "AnnoLine2": "Island", "Id": 91}}
{"type": "Feature", "id": 20, "geometry": {"type": "Point", "coordinates": [-73.9656574256031, 40.7828898480422]}, "properties": {"Stacked": 2, "Angle": 0, "Borough": "Manhattan", "AnnoLine1": "Central", "Type": "Park", "AnnoLine4": " ", "Name": "Central Park", "FID": 20, "AnnoLine3": " ", "AnnoLine2": "Park", "Id": 15}}
{"type": "Feature", "id": 21, "geometry": {"type": "Point", "coordinates": [-73.9819035276893, 40.7680687935988]}, "properties": {"Stacked": 2, "Angle": 0, "Borough": "Manhattan", "AnnoLine1": "Columbus", "Type": "Area of Interest", "AnnoLine4": " ", "Name": "Columbus Circle", "FID": 21, "AnnoLine3": " ", "AnnoLine2": "Circle", "Id": 18}}
{"type": "Feature", "id": 22, "geometry": {"type": "Point", "coordinates": [-73.9817952374545, 40.7580295692771]}, "properties": {"Stacked": 2, "Angle": 0, "Borough": "Manhattan", "AnnoLine1": "Times", "Type": "Area of Interest", "AnnoLine4": " ", "Name": "Times Square", "FID": 22, "AnnoLine3": " ", "AnnoLine2": "Square", "Id": 88}}
{"type": "Feature", "id": 23, "geometry": {"type": "Point", "coordinates": [-73.9880680721999, 40.7421896591454]}, "properties": {"Stacked": 2, "Angle": 0, "Borough": "Manhattan", "AnnoLine1": "Madison", "Type": "Park", "AnnoLine4": " ", "Name": "Madison Square", "FID": 23, "AnnoLine3": " ", "AnnoLine2": "Square", "Id": 56}}
{"type": "Feature", "id": 24, "geometry": {"type": "Point", "coordinates": [-73.9903815452252, 40.7359679825515]}, "properties": {"Stacked": 2, "Angle": 0, "Borough": "Manhattan", "AnnoLine1": "Union", "Type": "Area of Interest", "AnnoLine4": " ", "Name": "Union Square", "FID": 24, "AnnoLine3": " ", "AnnoLine2": "Square", "Id": 89}}
{"type": "Feature", "id": 25, "geometry": {"type": "Point", "coordinates": [-74.0183906417223, 40.6894237575672]}, "properties": {"Stacked": 2, "Angle": 41, "Borough": "Manhattan", "AnnoLine1": "Governors", "Type": "Park", "AnnoLine4": " ", "Name": "Governors Island", "FID": 25, "AnnoLine3": " ", "AnnoLine2": "Island", "Id": 39}}
{"type": "Feature", "id": 26, "geometry": {"type": "Point", "coordinates": [-73.9519827758373, 40.7209079640011]}, "properties": {"Stacked": 2, "Angle": 0, "Borough": "Brooklyn", "AnnoLine1": "McCarren", "Type": "Park", "AnnoLine4": " ", "Name": "McCarren Park", "FID": 26, "AnnoLine3": " ", "AnnoLine2": "Park", "Id": 59}}
{"type": "Feature", "id": 27, "geometry": {"type": "Point", "coordinates": [-73.9242704339782, 40.7768006122694]}, "properties": {"Stacked": 2, "Angle": 0, "Borough": "Queens", "AnnoLine1": "Astoria", "Type": "Park", "AnnoLine4": " ", "Name": "Astoria Park", "FID": 27, "AnnoLine3": " ", "AnnoLine2": "Park", "Id": 3}}
{"type": "Feature", "id": 28, "geometry": {"type": "Point", "coordinates": [-73.9661262882397, 40.6699452616738]}, "properties": {"Stacked": 2, "Angle": 0, "Borough": "Brooklyn", "AnnoLine1": "Botanic", "Type": "Park", "AnnoLine4": " ", "Name": "Botanic Garden", "FID": 28, "AnnoLine3": " ", "AnnoLine2": "Garden", "Id": 7}}
{"type": "Feature", "id": 29, "geometry": {"type": "Point", "coordinates": [-73.9690880725099, 40.6612590631759]}, "properties": {"Stacked": 2, "Angle": 0, "Borough": "Brooklyn", "AnnoLine1": "Prospect", "Type": "Park", "AnnoLine4": " ", "Name": "Prospect Park", "FID": 29, "AnnoLine3": " ", "AnnoLine2": "Park", "Id": 71}}
{"type": "Feature", "id": 30, "geometry": {"type": "Point", "coordinates": [-73.9904426594851, 40.6520551541898]}, "properties": {"Stacked": 2, "Angle": 0, "Borough": "Brooklyn", "AnnoLine1": "Greenwood", "Type": "Cemetery", "AnnoLine4": " ", "Name": "Greenwood Cemetery", "FID": 30, "AnnoLine3": " ", "AnnoLine2": "Cemetery", "Id": 41}}
{"type": "Feature", "id": 31, "geometry": {"type": "Point", "coordinates": [-73.9376496843436, 40.6468693060459]}, "properties": {"Stacked": 2, "Angle": 0, "Borough": "Brooklyn", "AnnoLine1": "Holy Cross", "Type": "Cemetery", "AnnoLine4": " ", "Name": "Holy Cross Cemetery", "FID": 31, "AnnoLine3": " ", "AnnoLine2": "Cemetery", "Id": 44}}
{"type": "Feature", "id": 32, "geometry": {"type": "Point", "coordinates": [-74.0185771450447, 40.6550933225329]}, "properties": {"Stacked": 2, "Angle": 0, "Borough": "Brooklyn", "AnnoLine1": "Bush", "Type": "Area of Interest", "AnnoLine4": " ", "Name": "Bush Terminal", "FID": 32, "AnnoLine3": " ", "AnnoLine2": "Terminal", "Id": 11}}
{"type": "Feature", "id": 33, "geometry": {"type": "Point", "coordinates": [-74.0323099707507, 40.6399671920687]}, "properties": {"Stacked": 3, "Angle": 0, "Borough": "Brooklyn", "AnnoLine1": "Owls", "Type": "Park", "AnnoLine4": " ", "Name": "Owls Head Park", "FID": 33, "AnnoLine3": "Park", "AnnoLine2": "Head", "Id": 68}}
{"type": "Feature", "id": 34, "geometry": {"type": "Point", "coordinates": [-74.0287927769479, 40.6073893860892]}, "properties": {"Stacked": 2, "Angle": 0, "Borough": "Brooklyn", "AnnoLine1": "Fort", "Type": "Area of Interest", "AnnoLine4": " ", "Name": "Fort Hamilton", "FID": 34, "AnnoLine3": " ", "AnnoLine2": "Hamilton", "Id": 32}}
{"type": "Feature", "id": 35, "geometry": {"type": "Point", "coordinates": [-74.0195624736668, 40.611472270439]}, "properties": {"Stacked": 3, "Angle": 0, "Borough": "Brooklyn", "AnnoLine1": "Dyker", "Type": "Park", "AnnoLine4": " ", "Name": "Dyker Beach Park", "FID": 35, "AnnoLine3": "Park", "AnnoLine2": "Beach", "Id": 25}}
{"type": "Feature", "id": 36, "geometry": {"type": "Point", "coordinates": [-73.9754334727625, 40.6202303063083]}, "properties": {"Stacked": 2, "Angle": 0, "Borough": "Brooklyn", "AnnoLine1": "Washington", "Type": "Cemetery", "AnnoLine4": " ", "Name": "Washington Cemetery", "FID": 36, "AnnoLine3": " ", "AnnoLine2": "Cemetery", "Id": 92}}
{"type": "Feature", "id": 37, "geometry": {"type": "Point", "coordinates": [-73.9240875446756, 40.6033704856563]}, "properties": {"Stacked": 2, "Angle": 0, "Borough": "Brooklyn", "AnnoLine1": "Marine", "Type": "Park", "AnnoLine4": " ", "Name": "Marine Park", "FID": 37, "AnnoLine3": " ", "AnnoLine2": "Park", "Id": 58}}
{"type": "Feature", "id": 38, "geometry": {"type": "Point", "coordinates": [-73.8900970111733, 40.5913077199218]}, "properties": {"Stacked": 3, "Angle": 0, "Borough": "Brooklyn", "AnnoLine1": "Floyd", "Type": "Gateway NRA", "AnnoLine4": " ", "Name": "Floyd Bennett Field", "FID": 38, "AnnoLine3": "Field", "AnnoLine2": "Bennett", "Id": 28}}
{"type": "Feature", "id": 39, "geometry": {"type": "Point", "coordinates": [-73.898109659971, 40.6254942781882]}, "properties": {"Stacked": 3, "Angle": 0, "Borough": "Brooklyn", "AnnoLine1": "Canarsie", "Type": "Park", "AnnoLine4": " ", "Name": "Canarsie Beach Park", "FID": 39, "AnnoLine3": "Park", "AnnoLine2": "Beach", "Id": 14}}
{"type": "Feature", "id": 40, "geometry": {"type": "Point", "coordinates": [-73.8306249063995, 40.67220258248]}, "properties": {"Stacked": 3, "Angle": 0, "Borough": "Queens", "AnnoLine1": "Aqueduct", "Type": "Area of Interest", "AnnoLine4": " ", "Name": "Aqueduct Race Track", "FID": 40, "AnnoLine3": "Track", "AnnoLine2": "Race", "Id": 2}}
{"type": "Feature", "id": 41, "geometry": {"type": "Point", "coordinates": [-73.8549940613086, 40.6772953103557]}, "properties": {"Stacked": 2, "Angle": 0, "Borough": "Queens", "AnnoLine1": "Bayside", "Type": "Cemetery", "AnnoLine4": " ", "Name": "Bayside Cemetery", "FID": 41, "AnnoLine3": " ", "AnnoLine2": "Cemetery", "Id": 5}}
{"type": "Feature", "id": 42, "geometry": {"type": "Point", "coordinates": [-73.7523841345503, 40.6519164659742]}, "properties": {"Stacked": 2, "Angle": 0, "Borough": "Queens", "AnnoLine1": "Brookville", "Type": "Park", "AnnoLine4": " ", "Name": "Brookville Park", "FID": 42, "AnnoLine3": " ", "AnnoLine2": "Park", "Id": 10}}
{"type": "Feature", "id": 43, "geometry": {"type": "Point", "coordinates": [-73.786917385148, 40.6732579091753]}, "properties": {"Stacked": 3, "Angle": 0, "Borough": "Queens", "AnnoLine1": "Baisley", "Type": "Park", "AnnoLine4": " ", "Name": "Baisley Pond Park", "FID": 43, "AnnoLine3": "Park", "AnnoLine2": "Pond", "Id": 4}}
{"type": "Feature", "id": 44, "geometry": {"type": "Point", "coordinates": [-73.772025617094, 40.6879188478642]}, "properties": {"Stacked": 3, "Angle": 0, "Borough": "Queens", "AnnoLine1": "Roy", "Type": "Park", "AnnoLine4": " ", "Name": "Roy Wilkins Park", "FID": 44, "AnnoLine3": "Park", "AnnoLine2": "Wilkins", "Id": 76}}
{"type": "Feature", "id": 45, "geometry": {"type": "Point", "coordinates": [-73.8457236307005, 40.7044515767091]}, "properties": {"Stacked": 1, "Angle": 0, "Borough": "Queens", "AnnoLine1": "Forest Park", "Type": "Park", "AnnoLine4": " ", "Name": "Forest Park", "FID": 45, "AnnoLine3": " ", "AnnoLine2": " ", "Id": 30}}
{"type": "Feature", "id": 46, "geometry": {"type": "Point", "coordinates": [-73.8761431217674, 40.6958497891621]}, "properties": {"Stacked": 2, "Angle": 0, "Borough": "Queens", "AnnoLine1": "Cypress Hills", "Type": "Cemetery", "AnnoLine4": " ", "Name": "Cypress Hills Cemetery", "FID": 46, "AnnoLine3": " ", "AnnoLine2": "Cemetery", "Id": 23}}
{"type": "Feature", "id": 47, "geometry": {"type": "Point", "coordinates": [-73.8669872568945, 40.7151724313614]}, "properties": {"Stacked": 2, "Angle": 0, "Borough": "Queens", "AnnoLine1": "St. John's", "Type": "Cemetery", "AnnoLine4": " ", "Name": "Saint  Johns Cemetery", "FID": 47, "AnnoLine3": " ", "AnnoLine2": "Cemetery", "Id": 77}}
{"type": "Feature", "id": 48, "geometry": {"type": "Point", "coordinates": [-73.9139704576773, 40.710498171042]}, "properties": {"Stacked": 3, "Angle": 0, "Borough": "Queens", "AnnoLine1": "Linden", "Type": "Park", "AnnoLine4": " ", "Name": "Linden Hill Cemetery", "FID": 48, "AnnoLine3": "Cemetery", "AnnoLine2": "Hill", "Id": 54}}
{"type": "Feature", "id": 49, "geometry": {"type": "Point", "coordinates": [-73.8959491219165, 40.7208492278322]}, "properties": {"Stacked": 2, "Angle": 0, "Borough": "Queens", "AnnoLine1": "Mt. Olivet", "Type": "Cemetery", "AnnoLine4": " ", "Name": "Mount Olivet Cemetery", "FID": 49, "AnnoLine3": " ", "AnnoLine2": "Cemetery", "Id": 65}}
{"type": "Feature", "id": 50, "geometry": {"type": "Point", "coordinates": [-73.8796335965986, 40.7203612893737]}, "properties": {"Stacked": 2, "Angle": 0, "Borough": "Queens", "AnnoLine1": "Juniper Valley", "Type": "Park", "AnnoLine4": " ", "Name": "Juniper Valley Park", "FID": 50, "AnnoLine3": " ", "AnnoLine2": "Park", "Id": 49}}
{"type": "Feature", "id": 51, "geometry": {"type": "Point", "coordinates": [-73.8874859937895, 40.7122445135849]}, "properties": {"Stacked": 2, "Angle": 0, "Borough": "Queens", "AnnoLine1": "Lutheran", "Type": "Cemetery", "AnnoLine4": " ", "Name": "Lutheran Cemetery", "FID": 51, "AnnoLine3": " ", "AnnoLine2": "Cemetery", "Id": 55}}
{"type": "Feature", "id": 52, "geometry": {"type": "Point", "coordinates": [-73.7417329594779, 40.6858485940902]}, "properties": {"Stacked": 2, "Angle": 0, "Borough": "Queens", "AnnoLine1": "Montefiore", "Type": "Cemetery", "AnnoLine4": " ", "Name": "Montefiore Cemetery", "FID": 52, "AnnoLine3": " ", "AnnoLine2": "Cemetery", "Id": 61}}
{"type": "Feature", "id": 53, "geometry": {"type": "Point", "coordinates": [-73.8414166453791, 40.738007348664]}, "properties": {"Stacked": 4, "Angle": 0, "Borough": "Queens", "AnnoLine1": "Flushing", "Type": "Park", "AnnoLine4": "Park", "Name": "Flushing Meadows Corona Park", "FID": 53, "AnnoLine3": "Corona", "AnnoLine2": "Meadows", "Id": 29}}
{"type": "Feature", "id": 54, "geometry": {"type": "Point", "coordinates": [-73.830339322525, 40.734100997947]}, "properties": {"Stacked": 3, "Angle": 0, "Borough": "Queens", "AnnoLine1": "Mt.", "Type": "Park", "AnnoLine4": " ", "Name": "Mount Hebron Cemetery", "FID": 54, "AnnoLine3": "Cemetery", "AnnoLine2": "Hebron", "Id": 63}}
{"type": "Feature", "id": 55, "geometry": {"type": "Point", "coordinates": [-73.8041035588497, 40.7445883508953]}, "properties": {"Stacked": 1, "Angle": 0, "Borough": "Queens", "AnnoLine1": "Kissena Park", "Type": "Park", "AnnoLine4": " ", "Name": "Kissena Park", "FID": 55, "AnnoLine3": " ", "AnnoLine2": " ", "Id": 50}}
{"type": "Feature", "id": 56, "geometry": {"type": "Point", "coordinates": [-73.7690317536845, 40.7290414509711]}, "properties": {"Stacked": 2, "Angle": 0, "Borough": "Queens", "AnnoLine1": "Cunningham", "Type": "Park", "AnnoLine4": " ", "Name": "Cunningham Park", "FID": 56, "AnnoLine3": " ", "AnnoLine2": "Park", "Id": 22}}
{"type": "Feature", "id": 57, "geometry": {"type": "Point", "coordinates": [-73.777040983099, 40.7925474378836]}, "properties": {"Stacked": 2, "Angle": 0, "Borough": "Queens", "AnnoLine1": "Fort", "Type": "Park", "AnnoLine4": " ", "Name": "Fort Totten", "FID": 57, "AnnoLine3": " ", "AnnoLine2": "Totten", "Id": 35}}
{"type": "Feature", "id": 58, "geometry": {"type": "Point", "coordinates": [-73.7888652115169, 40.7825979376145]}, "properties": {"Stacked": 2, "Angle": 0, "Borough": "Queens", "AnnoLine1": "Clearview", "Type": "Park", "AnnoLine4": " ", "Name": "Clearview Park", "FID": 58, "AnnoLine3": " ", "AnnoLine2": "Park", "Id": 16}}
{"type": "Feature", "id": 59, "geometry": {"type": "Point", "coordinates": [-73.7689998302576, 40.7713432249834]}, "properties": {"Stacked": 2, "Angle": 0, "Borough": "Queens", "AnnoLine1": "Crocheron", "Type": "Park", "AnnoLine4": " ", "Name": "Crocheron Park", "FID": 59, "AnnoLine3": " ", "AnnoLine2": "Park", "Id": 20}}
{"type": "Feature", "id": 60, "geometry": {"type": "Point", "coordinates": [-73.7442731015402, 40.7536656880347]}, "properties": {"Stacked": 3, "Angle": 0, "Borough": "Queens", "AnnoLine1": "Alley", "Type": "Park", "AnnoLine4": " ", "Name": "Alley Pond Park", "FID": 60, "AnnoLine3": "Park", "AnnoLine2": "Pond", "Id": 1}}
{"type": "Feature", "id": 61, "geometry": {"type": "Point", "coordinates": [-73.7322883472688, 40.7516520502665]}, "properties": {"Stacked": 2, "Angle": 0, "Borough": "Queens", "AnnoLine1": "Douglaston", "Type": "Park", "AnnoLine4": " ", "Name": "Douglaston Park", "FID": 61, "AnnoLine3": " ", "AnnoLine2": "Park", "Id": 24}}
{"type": "Feature", "id": 62, "geometry": {"type": "Point", "coordinates": [-73.7862327320297, 40.8068589722877]}, "properties": {"Stacked": 2, "Angle": 0, "Borough": "Bronx", "AnnoLine1": "Fort", "Type": "Area of Interest", "AnnoLine4": " ", "Name": "Fort Schuyler", "FID": 62, "AnnoLine3": " ", "AnnoLine2": "Schuyler", "Id": 33}}
{"type": "Feature", "id": 63, "geometry": {"type": "Point", "coordinates": [-73.9301387497758, 40.733390646397]}, "properties": {"Stacked": 2, "Angle": 0, "Borough": "Queens", "AnnoLine1": "Calvary", "Type": "Cemetery", "AnnoLine4": " ", "Name": "Calvary Cemetery", "FID": 63, "AnnoLine3": " ", "AnnoLine2": "Cemetery", "Id": 12}}
{"type": "Feature", "id": 64, "geometry": {"type": "Point", "coordinates": [-73.9131488151267, 40.7370800084738]}, "properties": {"Stacked": 3, "Angle": 0, "Borough": "Queens", "AnnoLine1": "New", "Type": "Park", "AnnoLine4": " ", "Name": "New Calvary Cemetery", "FID": 64, "AnnoLine3": "Cemetery", "AnnoLine2": "Calvary", "Id": 67}}
{"type": "Feature", "id": 65, "geometry": {"type": "Point", "coordinates": [-73.9079137606173, 40.7320665003949]}, "properties": {"Stacked": 2, "Angle": 0, "Borough": "Queens", "AnnoLine1": "Mt. Zion", "Type": "Cemetery", "AnnoLine4": " ", "Name": "Mount Zion Cemetery", "FID": 65, "AnnoLine3": " ", "AnnoLine2": "Cemetery", "Id": 66}}
{"type": "Feature", "id": 66, "geometry": {"type": "Point", "coordinates": [-73.8715853282906, 40.5678899915317]}, "properties": {"Stacked": 2, "Angle": 0, "Borough": "Queens", "AnnoLine1": "Jacob Riis", "Type": "Gateway NRA", "AnnoLine4": " ", "Name": "Jacob Riis Park", "FID": 66, "AnnoLine3": " ", "AnnoLine2": "Park", "Id": 46}}
{"type": "Feature", "id": 67, "geometry": {"type": "Point", "coordinates": [-73.8949018313362, 40.5616384904259]}, "properties": {"Stacked": 2, "Angle": 0, "Borough": "Queens", "AnnoLine1": "Fort", "Type": "Gateway NRA", "AnnoLine4": " ", "Name": "Fort Tilden", "FID": 67, "AnnoLine3": " ", "AnnoLine2": "Tilden", "Id": 34}}
{"type": "Feature", "id": 68, "geometry": {"type": "Point", "coordinates": [-74.0452837266825, 40.6900084594438]}, "properties": {"Stacked": 0, "Angle": 0, "Borough": "Manhattan", "AnnoLine1": "Liberty", "Type": "Park", "AnnoLine4": " ", "Name": "Liberty Island", "FID": 68, "AnnoLine3": " ", "AnnoLine2": "Island", "Id": 53}}
{"type": "Feature", "id": 69, "geometry": {"type": "Point", "coordinates": [-74.0401750447972, 40.6992030207106]}, "properties": {"Stacked": 0, "Angle": 0, "Borough": "Manhattan", "AnnoLine1": "Ellis", "Type": "Park", "AnnoLine4": " ", "Name": "Ellis Island", "FID": 69, "AnnoLine3": " ", "AnnoLine2": "Island", "Id": 26}}
{"type": "Feature", "id": 70, "geometry": {"type": "Point", "coordinates": [-74.1031713628136, 40.6423101056756]}, "properties": {"Stacked": 2, "Angle": 0, "Borough": "Staten Island", "AnnoLine1": "   Snug", "Type": "Park", "AnnoLine4": " ", "Name": "Snug Harbor", "FID": 70, "AnnoLine3": " ", "AnnoLine2": "  Harbor", "Id": 83}}
{"type": "Feature", "id": 71, "geometry": {"type": "Point", "coordinates": [-74.0946047729462, 40.6272945177138]}, "properties": {"Stacked": 3, "Angle": 0, "Borough": "Staten Island", "AnnoLine1": "Silver", "Type": "Park", "AnnoLine4": " ", "Name": "Silver Lake Park", "FID": 71, "AnnoLine3": "Park", "AnnoLine2": "Lake", "Id": 82}}
{"type": "Feature", "id": 72, "geometry": {"type": "Point", "coordinates": [-74.1107004287651, 40.6181184571301]}, "properties": {"Stacked": 3, "Angle": 0, "Borough": "Staten Island", "AnnoLine1": "Clove", "Type": "Park", "AnnoLine4": " ", "Name": "Clove Lakes Park", "FID": 72, "AnnoLine3": "Park", "AnnoLine2": "Lakes", "Id": 17}}
{"type": "Feature", "id": 73, "geometry": {"type": "Point", "coordinates": [-74.0588198284638, 40.6043929641433]}, "properties": {"Stacked": 2, "Angle": 0, "Borough": "Staten Island", "AnnoLine1": "Fort", "Type": "Gateway NRA", "AnnoLine4": " ", "Name": "Fort Wadsworth", "FID": 73, "AnnoLine3": " ", "AnnoLine2": "Wadsworth", "Id": 37}}
{"type": "Feature", "id": 74, "geometry": {"type": "Point", "coordinates": [-74.098830967805, 40.5680335000413]}, "properties": {"Stacked": 2, "Angle": 0, "Borough": "Staten Island", "AnnoLine1": "Miller", "Type": "Gateway NRA", "AnnoLine4": " ", "Name": "Miller Field", "FID": 74, "AnnoLine3": " ", "AnnoLine2": "Field", "Id": 60}}
{"type": "Feature", "id": 75, "geometry": {"type": "Point", "coordinates": [-74.1256069152283, 40.5484530072672]}, "properties": {"Stacked": 3, "Angle": 0, "Borough": "Staten Island", "AnnoLine1": "Great", "Type": "Gateway NRA", "AnnoLine4": " ", "Name": "Great Kills Park", "FID": 75, "AnnoLine3": "Park", "AnnoLine2": "Kills", "Id": 40}}
{"type": "Feature", "id": 76, "geometry": {"type": "Point", "coordinates": [-74.1173590677925, 40.5827229567843]}, "properties": {"Stacked": 2, "Angle": 0, "Borough": "Staten Island", "AnnoLine1": "Moravian", "Type": "Cemetery", "AnnoLine4": " ", "Name": "Moravian Cemetery", "FID": 76, "AnnoLine3": " ", "AnnoLine2": "Cemetery", "Id": 62}}
{"type": "Feature", "id": 77, "geometry": {"type": "Point", "coordinates": [-74.1425052558189, 40.5821635680914]}, "properties": {"Stacked": 2, "Angle": 0, "Borough": "Staten Island", "AnnoLine1": "LaTourette", "Type": "Park", "AnnoLine4": " ", "Name": "LaTourette Park", "FID": 77, "AnnoLine3": " ", "AnnoLine2": "Park", "Id": 52}}
{"type": "Feature", "id": 78, "geometry": {"type": "Point", "coordinates": [-74.158248018093, 40.6006282164015]}, "properties": {"Stacked": 2, "Angle": 0, "Borough": "Staten Island", "AnnoLine1": "Willowbrook", "Type": "Park", "AnnoLine4": " ", "Name": "Willowbrook Park", "FID": 78, "AnnoLine3": " ", "AnnoLine2": "Park", "Id": 93}}
{"type": "Feature", "id": 79, "geometry": {"type": "Point", "coordinates": [-74.1753558717345, 40.5312613874789]}, "properties": {"Stacked": 3, "Angle": 0, "Borough": "Staten Island", "AnnoLine1": "Blue", "Type": "Park", "AnnoLine4": " ", "Name": "Blue Heron Park", "FID": 79, "AnnoLine3": "Park", "AnnoLine2": "Heron", "Id": 6}}
{"type": "Feature", "id": 80, "geometry": {"type": "Point", "coordinates": [-74.1924307456779, 40.5217478398616]}, "properties": {"Stacked": 3, "Angle": 0, "Borough": "Staten Island", "AnnoLine1": "Wolfe's", "Type": "Park", "AnnoLine4": " ", "Name": "Wolfe's Pond Park", "FID": 80, "AnnoLine3": "Park", "AnnoLine2": "Pond", "Id": 94}}
{"type": "Feature", "id": 81, "geometry": {"type": "Point", "coordinates": [-74.2180654382986, 40.5096728994023]}, "properties": {"Stacked": 2, "Angle": 0, "Borough": "Staten Island", "AnnoLine1": "Mt.", "Type": "Park", "AnnoLine4": " ", "Name": "Mount Loretto", "FID": 81, "AnnoLine3": " ", "AnnoLine2": "Loretto", "Id": 64}}
{"type": "Feature", "id": 82, "geometry": {"type": "Point", "coordinates": [-74.2485661485077, 40.499574095393]}, "properties": {"Stacked": 3, "Angle": 0, "Borough": "Staten Island", "AnnoLine1": "Conference", "Type": "Park", "AnnoLine4": " ", "Name": "Conference House Park", "FID": 82, "AnnoLine3": "Park", "AnnoLine2": "House", "Id": 19}}
{"type": "Feature", "id": 83, "geometry": {"type": "Point", "coordinates": [-74.1773118657624, 40.5747532598793]}, "properties": {"Stacked": 2, "Angle": 0, "Borough": "Staten Island", "AnnoLine1": "Freshkills", "Type": "Park", "AnnoLine4": " ", "Name": "Freshkills Park", "FID": 83, "AnnoLine3": " ", "AnnoLine2": "Park", "Id": 38}}
{"type": "Feature", "id": 84, "geometry": {"type": "Point", "coordinates": [-73.9151231901793, 40.5832034707911]}, "properties": {"Stacked": 2, "Angle": 0, "Borough": "Brooklyn", "AnnoLine1": "Plumb", "Type": "Park", "AnnoLine4": " ", "Name": "Plumb Beach", "FID": 84, "AnnoLine3": " ", "AnnoLine2": "Beach", "Id": 70}}
{"type": "Feature", "id": 85, "geometry": {"type": "Point", "coordinates": [-73.786000383345, 40.6480758106411]}, "properties": {"Stacked": 2, "Angle": 0, "Borough": "Queens", "AnnoLine1": "John F. Kennedy", "Type": "Airport", "AnnoLine4": " ", "Name": "John F. Kennedy International Airport", "FID": 85, "AnnoLine3": " ", "AnnoLine2": "International Airport", "Id": 48}}
{"type": "Feature", "id": 86, "geometry": {"type": "Point", "coordinates": [-73.8750303284117, 40.7751539300719]}, "properties": {"Stacked": 1, "Angle": 0, "Borough": "Queens", "AnnoLine1": "LaGuardia Airport", "Type": "Airport", "AnnoLine4": " ", "Name": "LaGuardia Airport", "FID": 86, "AnnoLine3": " ", "AnnoLine2": " ", "Id": 51}}
{"type": "Feature", "id": 87, "geometry": {"type": "Point", "coordinates": [-73.8262903771017, 40.6228857001386]}, "properties": {"Stacked": 2, "Angle": 0, "Borough": "Brooklyn", "AnnoLine1": "Jamaica Bay", "Type": "Gateway NRA", "AnnoLine4": " ", "Name": "Jamaica Bay Wildlife Refuge", "FID": 87, "AnnoLine3": " ", "AnnoLine2": " Wildlife Refuge", "Id": 47}}
{"type": "Feature", "id": 88, "geometry": {"type": "Point", "coordinates": [-73.9936967694603, 40.5850836213349]}, "properties": {"Stacked": 2, "Angle": 0, "Borough": "Brooklyn", "AnnoLine1": "Calvert Vaux", "Type": "Park", "AnnoLine4": " ", "Name": "Calvert Vaux", "FID": 88, "AnnoLine3": " ", "AnnoLine2": "Park", "Id": 13}}
{"type": "Feature", "id": 89, "geometry": {"type": "Point", "coordinates": [-74.1149218499556, 40.5904429585889]}, "properties": {"Stacked": 2, "Angle": 0, "Borough": "Staten Island", "AnnoLine1": "  High Rock", "Type": "Park", "AnnoLine4": " ", "Name": "High Rock Park", "FID": 89, "AnnoLine3": " ", "AnnoLine2": "  Park", "Id": 43}}
{"type": "Feature", "id": 90, "geometry": {"type": "Point", "coordinates": [-74.0055541798403, 40.6720555224211]}, "properties": {"Stacked": 3, "Angle": 0, "Borough": "Brooklyn", "AnnoLine1": "Red Hook", "Type": "Park", "AnnoLine4": " ", "Name": "Red Hook Recreation Area", "FID": 90, "AnnoLine3": "Area", "AnnoLine2": "Recreation", "Id": 73}}
{"type": "Feature", "id": 91, "geometry": {"type": "Point", "coordinates": [-73.8984733696444, 40.7644570290074]}, "properties": {"Stacked": 2, "Angle": 0, "Borough": "Queens", "AnnoLine1": "St. Michael's", "Type": "Cemetery", "AnnoLine4": " ", "Name": "Saint Michael's Cemetery", "FID": 91, "AnnoLine3": " ", "AnnoLine2": "Cemetery", "Id": 80}}
{"type": "Feature", "id": 92, "geometry": {"type": "Point", "coordinates": [-73.9168305381368, 40.8923138620587]}, "properties": {"Stacked": 1, "Angle": 72, "Borough": "Bronx", "AnnoLine1": "Riverdale Park", "Type": "Park", "AnnoLine4": " ", "Name": "Riverdale Park", "FID": 92, "AnnoLine3": " ", "AnnoLine2": " ", "Id": 75}}
{"type": "Feature", "id": 93, "geometry": {"type": "Point", "coordinates": [-73.8649709730972, 40.6591531115727]}, "properties": {"Stacked": 3, "Angle": 0, "Borough": "Queens", "AnnoLine1": "Spring", "Type": "Gateway NRA", "AnnoLine4": " ", "Name": "Spring Creek Park", "FID": 93, "AnnoLine3": "Park", "AnnoLine2": "Creek", "Id": 86}}
{"type": "Feature", "id": 94, "geometry": {"type": "Point", "coordinates": [-74.0074349818871, 40.7266091291055]}, "properties": {"Stacked": 2, "Angle": 0, "Borough": "Manhattan", "AnnoLine1": "Hudson", "Type": "Area of Interest", "AnnoLine4": " ", "Name": "Hudson Square", "FID": 94, "AnnoLine3": " ", "AnnoLine2": "Square", "Id": 97}}
{"type": "Feature", "id": 95, "geometry": {"type": "Point", "coordinates": [-73.9662784827999, 40.7005266905161]}, "properties": {"Stacked": 2, "Angle": 0, "Borough": "Brooklyn", "AnnoLine1": "Navy", "Type": "Area of Interest", "AnnoLine4": " ", "Name": "Navy Yard", "FID": 95, "AnnoLine3": " ", "AnnoLine2": "Yard", "Id": 96}}
{"type": "Feature", "id": 96, "geometry": {"type": "Point", "coordinates": [-73.9344064039779, 40.5510027128415]}, "properties": {"Stacked": 2, "Angle": 0, "Borough": "Queens", "AnnoLine1": "Breezy", "Type": "Gateway NRA", "AnnoLine4": " ", "Name": "Breezy Point", "FID": 96, "AnnoLine3": " ", "AnnoLine2": "Point", "Id": 96}}
